{
  "kim3meals": [
    {
      "addr": "서울 광진구 자양번영로12길 5-3 1층",
      "date": "Mon, 27 Feb 2023 22:38:54 GMT",
      "latitue": 37.5371328,
      "longitude": 127.0771236,
      "map": "https://naver.me/GpJfYnb3",
      "store": "바다회포차",
      "thumbnail": "https://i.ytimg.com/vi/t-wQe3lEzn8/default.jpg",
      "title": "서울의 전설적인 횟집 '바다회사랑'을 잇는 겨울철 대방어 성지",
      "url": "https://www.youtube.com/watch?v=t-wQe3lEzn8"
    },
    {
      "addr": "서울 중구 다산로28길 2-1 1층",
      "date": "Mon, 27 Feb 2023 22:38:25 GMT",
      "latitue": 37.5597481,
      "longitude": 127.0138805,
      "map": "https://naver.me/5ncP1esX",
      "store": "스담",
      "thumbnail": "https://i.ytimg.com/vi/QNymzFeyLCI/default.jpg",
      "title": "퀄리티가 미쳤는데!? 치킨 한마리 가격으로 스시 오마카세를 먹을 수 있는 집 (심지어 디너)",
      "url": "https://www.youtube.com/watch?v=QNymzFeyLCI"
    },
    {
      "addr": "서울 마포구 동교로 227-7 1층 스시지현",
      "date": "Mon, 27 Feb 2023 22:38:25 GMT",
      "latitue": 37.5606211,
      "longitude": 126.9235712,
      "map": "https://naver.me/G4rLpHn8",
      "store": "스시지현",
      "thumbnail": "https://i.ytimg.com/vi/QNymzFeyLCI/default.jpg",
      "title": "퀄리티가 미쳤는데!? 치킨 한마리 가격으로 스시 오마카세를 먹을 수 있는 집 (심지어 디너)",
      "url": "https://www.youtube.com/watch?v=QNymzFeyLCI"
    },
    {
      "addr": "서울 강동구 천호동 548-2",
      "date": "Tue, 31 Jan 2023 01:18:39 GMT",
      "latitue": 37.5407942,
      "longitude": 127.1297836,
      "map": "https://naver.me/5SWaMje8",
      "store": "계절식당",
      "thumbnail": "https://i.ytimg.com/vi/AMc1JylT7Ao/default.jpg",
      "title": "동네 어르신들 취해서 나오는 반찬가게는 살다살다 처음!",
      "url": "https://www.youtube.com/watch?v=AMc1JylT7Ao"
    },
    {
      "addr": "서울 성동구 왕십리로 134",
      "date": "Tue, 31 Jan 2023 01:18:32 GMT",
      "latitue": 37.5495435,
      "longitude": 127.0446906,
      "map": "https://naver.me/5JJQQlHN",
      "store": "훼미리손칼국수보쌈",
      "thumbnail": "https://i.ytimg.com/vi/ctqFR6tn-80/default.jpg",
      "title": "보쌈+손칼국수+김치3종+공깃밥=15,000원! 36년 업력 레전드 식당",
      "url": "https://www.youtube.com/watch?v=ctqFR6tn-80"
    },
    {
      "addr": "서울 동대문구 하정로4길 12",
      "date": "Tue, 31 Jan 2023 01:18:26 GMT",
      "latitue": 37.575639,
      "longitude": 127.0271992,
      "map": "https://naver.me/GFpV0qIX",
      "store": "순대국집",
      "thumbnail": "https://i.ytimg.com/vi/bpCKGGSm-uA/default.jpg",
      "title": "진짜 술맛 지리는 미스터리한 국밥집",
      "url": "https://www.youtube.com/watch?v=bpCKGGSm-uA"
    },
    {
      "addr": "서울 마포구 성미산로 190-4 지하",
      "date": "Tue, 31 Jan 2023 01:18:18 GMT",
      "latitue": 37.5628325,
      "longitude": 126.9260451,
      "map": "https://naver.me/GPBbaDLX",
      "store": "사심스키야키",
      "thumbnail": "https://i.ytimg.com/vi/-21Fc_r95HE/default.jpg",
      "title": "가성비 미친 스키야키 전문 오마카세집",
      "url": "https://www.youtube.com/watch?v=-21Fc_r95HE"
    },
    {
      "addr": "서울 종로구 창경궁로 123-5",
      "date": "Sat, 31 Dec 2022 06:25:58 GMT",
      "latitue": 37.5735433,
      "longitude": 126.9971226,
      "map": "https://naver.me/5Tv0j7B8",
      "store": "충무칼국수",
      "thumbnail": "https://i.ytimg.com/vi/NM8Y9-Q9iz0/default.jpg",
      "title": "41년 업력! 사람 미어터지는 어마무시한 칼국수 성지",
      "url": "https://www.youtube.com/watch?v=NM8Y9-Q9iz0"
    },
    {
      "addr": "서울 마포구 동교로12길 21 1층",
      "date": "Sat, 31 Dec 2022 06:25:49 GMT",
      "latitue": 37.5534677,
      "longitude": 126.9126788,
      "map": "https://naver.me/xswYXm4A",
      "store": "목포식당",
      "thumbnail": "https://i.ytimg.com/vi/Nxw5XluS3Ao/default.jpg",
      "title": "아니 이런 곳에 보물이!? 미친 코스가 쏟아지는 숨은 이모카세의 성지",
      "url": "https://www.youtube.com/watch?v=Nxw5XluS3Ao"
    },
    {
      "addr": "서울 광진구 동일로18길 23",
      "date": "Thu, 01 Dec 2022 11:49:57 GMT",
      "latitue": 37.5397918,
      "longitude": 127.0643356,
      "map": "https://naver.me/FqSHjds9",
      "store": "안주나라",
      "thumbnail": "https://i.ytimg.com/vi/9jrTI8SBgaU/default.jpg",
      "title": "(실화)연예인들의 성지라길래 진짜 연예인이랑 다녀온 집",
      "url": "https://www.youtube.com/watch?v=9jrTI8SBgaU"
    }
  ]
}